{
"type": "FeatureCollection",
"name": "RustAndSunBelt",
"features": [
{ "type": "Feature", "properties": { "Loc_name": "World", "USER_City": "Detroit", "USER_State": "Michigan", "USER_F1990": 1027946.0, "USER_F1995": 1003701.0, "USER_F2000": 945471.0, "USER_F2005": 877791.0, "USER_F2010": 711198.0, "USER_F2015": 679562.0, "USER_F2020": 665369.0, "Latitude": 42.3329407, "Longitude": -83.0478365, "BeltName": "Rust Belt" }, "geometry": { "type": "Point", "coordinates": [ -83.0478365, 42.3329407 ] } },
{ "type": "Feature", "properties": { "Loc_name": "World", "USER_City": "Dayton", "USER_State": "Ohio", "USER_F1990": 182393.0, "USER_F1995": 174787.0, "USER_F2000": 165179.0, "USER_F2005": 158394.0, "USER_F2010": 142295.0, "USER_F2015": 140832.0, "USER_F2020": 139907.0, "Latitude": 39.760982, "Longitude": -84.192203, "BeltName": "Rust Belt" }, "geometry": { "type": "Point", "coordinates": [ -84.192203, 39.760982 ] } },
{ "type": "Feature", "properties": { "Loc_name": "World", "USER_City": "Buffalo", "USER_State": "New York", "USER_F1990": 327931.0, "USER_F1995": 313088.0, "USER_F2000": 292374.0, "USER_F2005": 279538.0, "USER_F2010": 261280.0, "USER_F2015": 258232.0, "USER_F2020": 254479.0, "Latitude": 42.887691, "Longitude": -78.879374, "BeltName": "Rust Belt" }, "geometry": { "type": "Point", "coordinates": [ -78.879374, 42.887691 ] } },
{ "type": "Feature", "properties": { "Loc_name": "World", "USER_City": "Pittsburgh", "USER_State": "Pennsylvania", "USER_F1990": 370139.0, "USER_F1995": 353781.0, "USER_F2000": 333595.0, "USER_F2005": 317559.0, "USER_F2010": 305351.0, "USER_F2015": 304224.0, "USER_F2020": 299226.0, "Latitude": 40.4421676, "Longitude": -79.9949573, "BeltName": "Rust Belt" }, "geometry": { "type": "Point", "coordinates": [ -79.9949573, 40.4421676 ] } },
{ "type": "Feature", "properties": { "Loc_name": "World", "USER_City": "Cleveland", "USER_State": "Ohio", "USER_F1990": 505450.0, "USER_F1995": 501228.0, "USER_F2000": 476575.0, "USER_F2005": 451317.0, "USER_F2010": 396095.0, "USER_F2015": 389524.0, "USER_F2020": 378589.0, "Latitude": 41.5051414, "Longitude": -81.6914575, "BeltName": "Rust Belt" }, "geometry": { "type": "Point", "coordinates": [ -81.6914575, 41.5051414 ] } },
{ "type": "Feature", "properties": { "Loc_name": "World", "USER_City": "Cincinnati", "USER_State": "Ohio", "USER_F1990": 364553.0, "USER_F1995": 347862.0, "USER_F2000": 330100.0, "USER_F2005": 309978.0, "USER_F2010": 297061.0, "USER_F2015": 299649.0, "USER_F2020": 304548.0, "Latitude": 39.12711, "Longitude": -84.51439, "BeltName": "Rust Belt" }, "geometry": { "type": "Point", "coordinates": [ -84.51439, 39.12711 ] } },
{ "type": "Feature", "properties": { "Loc_name": "World", "USER_City": "Rochester", "USER_State": "New York", "USER_F1990": 230872.0, "USER_F1995": 223313.0, "USER_F2000": 219826.0, "USER_F2005": 211238.0, "USER_F2010": 210190.0, "USER_F2015": 208610.0, "USER_F2020": 205225.0, "Latitude": 43.155708, "Longitude": -77.612547, "BeltName": "Rust Belt" }, "geometry": { "type": "Point", "coordinates": [ -77.612547, 43.155708 ] } },
{ "type": "Feature", "properties": { "Loc_name": "World", "USER_City": "Austin", "USER_State": "Texas", "USER_F1990": 494290.0, "USER_F1995": 555092.0, "USER_F2000": 675370.0, "USER_F2005": 714650.0, "USER_F2010": 806214.0, "USER_F2015": 921452.0, "USER_F2020": 995484.0, "Latitude": 30.264979, "Longitude": -97.746598, "BeltName": "Sun Belt" }, "geometry": { "type": "Point", "coordinates": [ -97.746598, 30.264979 ] } },
{ "type": "Feature", "properties": { "Loc_name": "World", "USER_City": "Miami", "USER_State": "Florida", "USER_F1990": 359790.0, "USER_F1995": 365527.0, "USER_F2000": 362220.0, "USER_F2005": 382335.0, "USER_F2010": 400798.0, "USER_F2015": 434703.0, "USER_F2020": 471525.0, "Latitude": 25.775084, "Longitude": -80.194702, "BeltName": "Sun Belt" }, "geometry": { "type": "Point", "coordinates": [ -80.194702, 25.775084 ] } },
{ "type": "Feature", "properties": { "Loc_name": "World", "USER_City": "Orlando", "USER_State": "Florida", "USER_F1990": 163435.0, "USER_F1995": 171307.0, "USER_F2000": 195410.0, "USER_F2005": 218175.0, "USER_F2010": 239219.0, "USER_F2015": 270785.0, "USER_F2020": 289457.0, "Latitude": 28.538331, "Longitude": -81.378879, "BeltName": "Sun Belt" }, "geometry": { "type": "Point", "coordinates": [ -81.378879, 28.538331 ] } },
{ "type": "Feature", "properties": { "Loc_name": "World", "USER_City": "Tampa", "USER_State": "Florida", "USER_F1990": 280826.0, "USER_F1995": 284572.0, "USER_F2000": 303333.0, "USER_F2005": 326157.0, "USER_F2010": 337156.0, "USER_F2015": 371732.0, "USER_F2020": 407599.0, "Latitude": 27.947423, "Longitude": -82.458776, "BeltName": "Sun Belt" }, "geometry": { "type": "Point", "coordinates": [ -82.458776, 27.947423 ] } },
{ "type": "Feature", "properties": { "Loc_name": "World", "USER_City": "Houston", "USER_State": "Texas", "USER_F1990": 1697873.0, "USER_F1995": 1779124.0, "USER_F2000": 1977408.0, "USER_F2005": 2021875.0, "USER_F2010": 2097647.0, "USER_F2015": 2283616.0, "USER_F2020": 2316120.0, "Latitude": 29.7608026, "Longitude": -95.3695062, "BeltName": "Sun Belt" }, "geometry": { "type": "Point", "coordinates": [ -95.3695062, 29.7608026 ] } },
{ "type": "Feature", "properties": { "Loc_name": "World", "USER_City": "Tallahassee", "USER_State": "Florida", "USER_F1990": 125448.0, "USER_F1995": 134468.0, "USER_F2000": 152565.0, "USER_F2005": 163583.0, "USER_F2010": 181441.0, "USER_F2015": 188751.0, "USER_F2020": 196326.0, "Latitude": 30.440741, "Longitude": -84.278328, "BeltName": "Sun Belt" }, "geometry": { "type": "Point", "coordinates": [ -84.278328, 30.440741 ] } },
{ "type": "Feature", "properties": { "Loc_name": "World", "USER_City": "San Antonio", "USER_State": "Texas", "USER_F1990": 997434.0, "USER_F1995": 1086660.0, "USER_F2000": 1155565.0, "USER_F2005": 1252315.0, "USER_F2010": 1332966.0, "USER_F2015": 1464839.0, "USER_F2020": 1567118.0, "Latitude": 29.4251712, "Longitude": -98.494614, "BeltName": "Sun Belt" }, "geometry": { "type": "Point", "coordinates": [ -98.494614, 29.4251712 ] } },
{ "type": "Feature", "properties": { "Loc_name": "World", "USER_City": "Charleston", "USER_State": "South Carolina", "USER_F1990": 90620.0, "USER_F1995": 86584.0, "USER_F2000": 100834.0, "USER_F2005": 110740.0, "USER_F2010": 120760.0, "USER_F2015": 132597.0, "USER_F2020": 139714.0, "Latitude": 32.77647, "Longitude": -79.931027, "BeltName": "Sun Belt" }, "geometry": { "type": "Point", "coordinates": [ -79.931027, 32.77647 ] } }
]
}
